{

    "universitylist" : [
        {
          "Name": "Columbia University",
          "City": "New York",
          "State":"NY",
          "lat": 40.8075395,
          "lng": -73.9647614
        },


        {
          "Name": "Stanford University",
          "City": "Stanford,",
          "State":"CA",
          "lat": 37.4274787,
          "lng": -122.1719077

        },

	{
          "Name": "Duke University",
          "City": "Durham",
           "State":"NC",
         "lat": 36.0014301,
      "lng":-78.9404173

        },

	{
      "Name": "University of Pennsylvania",
      "City": "Philadelphia",
      "State":"PA",
      "lat": 39.9522229,
      "lng": -75.1954024

        },

	{
      "Name": "Binghamton University--SUNY",
      "City": "Binghamton,",
      "State":"NY",
      "lat": 42.0885434,
      "lng": -75.9730848

        },

        {
          "Name": "Johns Hopkins University",
          "City": "Baltimore",
          "State":"MD",
          "lat": 39.3299054,
          "lng":-76.6227064
        },
	{
      "Name": "Yale University",
      "City": "New Haven",
      "State":"CT",
      "lat": 41.3163284,
      "lng":-72.9245318

        },

	{
      "Name": "Rice University",
      "City": "Houston",
      "State":"TX",
      "lat":29.7173987,
      "lng": -95.4040199
        },

	{
      "Name": "University of Southern California",
      "City": "Los Angeles",
      "State":"CA",
      "lat": 34.0223563,
      "lng":-118.2873057

        },

	{
      "Name": "Georgia Institute of Technology",
      "City": "Atlanta",
      "State":"GA",
          "lat": 33.7756222,
          "lng": -84.3984737

        }
		   ]
}
